prefectureID,prefecture,center_name,Zip Code	,Address,TEL,FAX,long,lat
1,北海道,札幌市保健所,060-0042,札幌市中央区大通西19,011-622-5151,011-622-7221,141.3277853,43.0572573
1,北海道,市立函館保健所,040-0001,函館市五稜郭町23－1,0138-32-1512,0138-32-1505,140.7524824,41.799617
1,北海道,旭川市保健所,070-8525,旭川市7条通10丁目,0166-25-6354,0166-26-2912,142.366838,43.7711717
1,北海道,小樽市保健所,047-0033,小樽市富岡１丁目５番１２号,0134-22-3117,0134-22-1469,140.9934834,43.1935561
1,北海道,江別保健所,069-0811,江別市錦町4－1,011-383-2111,011-383-2185,141.5297891,43.1024063
1,北海道,千歳保健所,066-8666,千歳市東雲町4－2,0123-23-3175,0123-23-3177,141.6531337,42.8220819
1,北海道,岩見沢保健所,068-8558,岩見沢市8条西5－1,0126-20-0200,0126-22-2514,141.7510951,43.1901648
1,北海道,滝川保健所,073-0023,滝川市緑町2－3－31,0125-24-6201,0125-23-5583,139.5639657,35.7172969
1,北海道,深川保健所,074-0002,深川市2条18－6,0164-22-1421,0164-22-1479,142.0559027,43.7242919
1,北海道,富良野保健所,076-0011,富良野市末広町2－10,0167-23-3161,0167-23-3163,142.3878863,43.3409976
1,北海道,名寄保健所,096-0005,名寄市東5条南3-63-38,01654-3-3121,01654-3-3224,142.4724097,44.3518652
1,北海道,岩内保健所,045-0022,岩内郡岩内町字清住252－1,0135-62-1537,0135-63-0898,140.5094532,42.9784294
1,北海道,倶知安保健所,044-8588,虻田郡倶知安町北1条東2,0136-23-1300,0136-22-5875,140.7563241,42.9017808
1,北海道,江差保健所,043-0043,檜山郡江差町字本町63,0139-52-1053,0139-52-1074,140.1261594,41.8657833
1,北海道,渡島保健所,041-8558,函館市美原町4－6－16,0138-47-9400,0138-47-9219,140.7290599,41.7686961
1,北海道,八雲保健所,049-3112,二海郡八雲町末広町120,0137-63-2168,0137-63-2169,140.2663502,42.2542938
1,北海道,室蘭保健所,051-8558,室蘭市海岸町１－４－１,0143-24-9900,0143-23-1446,140.9720883,42.3204569
1,北海道,苫小牧保健所,053-0021,苫小牧市若草町2-2-21,0144-34-4168,0144-34-4177,141.6075067,42.6372582
1,北海道,浦河保健所,057-0007,浦河郡浦河町東町ちのみ3-1-8,0146-22-3071,0146-22-1447,142.7926206,42.1645849
1,北海道,静内保健所,056-0005,日高郡新ひだか町静内こうせい町2-8-1,0146-42-0251,0146-42-7202,142.37141,42.3451645
1,北海道,帯広保健所,080-8588,帯広市東3条南3－1,0155-26-9005,0155-25-0864,143.2110736,42.91446639999999
1,北海道,釧路保健所,085-0826,釧路市城山2－4－22,0154-65-5811,0154-65-5352,144.4037016,42.98246049999999
1,北海道,根室保健所,087-0009,根室市弥栄町2－1,0153-23-5161,0153-24-0343,145.5853623,43.3321809
1,北海道,中標津保健所,086-1001,標津郡中標津町東1条南6－1－3,0153-72-2168,0153-72-6894,144.9783108,43.545454
1,北海道,網走保健所,093-8585,網走市北7条西3,0152-41-0603,0152-44-4879,144.2598888,44.0260873
1,北海道,北見保健所,090-8518,北見市青葉町6－6,0157-24-4171,0157-24-4199,143.8992496,43.8141843
1,北海道,紋別保健所,094-8642,紋別市南が丘町1－6,0158-23-3108,0158-23-1009,143.3545255,44.34526169999999
1,北海道,稚内保健所,097-8525,稚内市末広4-2-27,0162-33-2516,0162-32-2253,141.7009416,45.3975776
1,北海道,留萌保健所,077-8585,留萌市住之江町2－1－2,0164-42-8404,0164-42-8216,141.654306,43.9331174
1,北海道,上川保健所,079-8610,旭川市永山6条19-1-1,0166-46-5900,0166-46-5262,142.4393203,43.8073491
2,青森県,青森市保健所,030-0962,青森市佃2-19-13,017-765-5280,017-718-5645,140.7804245,40.8220849
2,青森県,八戸市保健所,031-0011,八戸市田向3-6-1,0178-38-0706,0178-38-0735,141.5104383,40.4915217
2,青森県,弘前保健所,036-8356,弘前市下白銀町１４－２,0172-33-8521,0172-33-8524,140.4680521,40.6042083
2,青森県,三戸地方保健所,039-1101,八戸市大字尻内町字鴨田7,0178-27-5111,0178-27-1594,141.4406897,40.5089376
2,青森県,五所川原保健所,037-0056,五所川原市末広町14,0173-34-2108,0173-34-7516,140.4403258,40.8140296
2,青森県,むつ保健所,035-0073,むつ市中央1丁目3－33,0175-31-1388,0175-31-1667,141.1898984,41.291033
2,青森県,上十三保健所,034-0082,十和田市西二番町10－15,0176-23-4261,0176-23-4246,141.2083263,40.6138153
2,青森県,東地方保健所,030-0113,青森市第二問屋町四丁目11-6,017-739-5421,017-739-5420,140.74863,40.7881741
3,岩手県,盛岡市保健所,020-0884,盛岡市神明町3－29,019-603-8301,019-654-5665,141.1584449,39.7014846
3,岩手県,県央保健所,020-0023,盛岡市内丸11－1,019-629-6565,019-629-6594,141.1540411,39.7027112
3,岩手県,中部保健所,025-0075,花巻市花城町1－41,0198-22-2331,0198-24-9240,141.1158996,39.3900124
3,岩手県,奥州保健所,023-0053,奥州市水沢区大手町5－5,0197-22-2861,0197-25-4106,141.1401284,39.1440371
3,岩手県,一関保健所,021-0027,一関市竹山町7－5,0191-26-1415,0191-26-3565,141.127219,38.9358415
3,岩手県,大船渡保健所,022-8502,大船渡市猪川町字前田6－1,0192-27-9913,0192-27-4197,141.7045921,39.0952669
3,岩手県,釜石保健所,026-0043,釜石市新町6－50,0193-25-2702,0193-25-2294,141.8454254,39.2658381
3,岩手県,宮古保健所,027-0072,宮古市五月町1－20,0193-64-2218,0193-64-7014,141.9454312,39.6476006
3,岩手県,久慈保健所,028-8042,久慈市八日町1－1,0194-53-4987,0194-52-3919,141.7635886,40.1921043
3,岩手県,二戸保健所,028-6103,二戸市石切所字荷渡6-3,0195-23-9206,0195-23-6432,141.2958978,40.2688046
4,宮城県,仙台市保健所,980-8671,仙台市青葉区国分町三丁目７番１号,022-214-8029,022-211-1915,140.8692447,38.268424
4,宮城県,石巻保健所,986-0850,石巻市あゆみ野五丁目７番地,0225-95-1416,0225-94-8982,141.2604779,38.4411893
4,宮城県,塩釜保健所,985-0003,塩竈市北浜4-8-15,022-363-5502,022-362-6161,141.0288507,38.32409579999999
4,宮城県,大崎保健所,989-6117,大崎市古川旭4－1－1,0229-91-0707,0229-22-9449,140.9747653,38.5663461
4,宮城県,気仙沼保健所,988-0066,気仙沼市東新城３丁目3-3,0226-22-6661,0226-24-4901,141.5542591,38.9032491
4,宮城県,仙南保健所,989-1243,柴田郡大河原町字南129－1,0224-53-3115,0224-53-3131,140.7293541,38.0469152
4,宮城県,栗原保健所,987-2251,栗原市築館藤木5－1,0228-22-2112,0228-22-7019,141.0187123,38.7385708
4,宮城県,登米保健所,987-0511,登米市迫町佐沼字西佐沼150－5,0220-22-7514,0220-22-6175,141.1982277,38.6837989
5,秋田県,秋田市保健所,010-0976,秋田市八橋南1-8-3,018-883-1170,018-883-1171,140.0914019,39.7203933
5,秋田県,大館保健所,018-5601,大館市十二所字平内新田237－1,0186-52-3955,0186-52-3911,140.654445,40.2150555
5,秋田県,北秋田保健所,018-3393,北秋田市鷹巣字東中岱76番地の1,0186-62-1165,0186-62-1180,140.3604297,40.2260379
5,秋田県,能代保健所,016-0815,能代市御指南町1番10号,0185-55-8023,0185-53-4114,140.0340112,40.2099366
5,秋田県,秋田中央保健所,018-1402,潟上市昭和乱橋字古開172番地1,018-855-5171,018-855-5160,140.0541597,39.8517727
5,秋田県,由利本荘保健所,015-0885,由利本荘市水林408番地,0184-22-4120,0184-22-6291,140.0346594,39.3856792
5,秋田県,大仙保健所,014-0062,大仙市大曲上栄町13番62号,0187-63-3403,0187-62-5288,140.4794756,39.4508355
5,秋田県,横手保健所,013-8503,横手市旭川一丁目3番46号,0182-32-4005,0182-32-3389,140.5754395,39.309419
5,秋田県,湯沢保健所,012-0857,湯沢市千石町二丁目1番10号,0183-73-6155,0183-73-6156,140.488225,39.1560774
6,山形県,山形市保健所,990-8580,山形市城南町一丁目１番１号霞城セントラル４階,023-616-7260,023-616-7263,140.326406,38.2498297
6,山形県,村山保健所,990-0031,山形市十日町1－6－6,023-627-1100,023-622-0191,140.3343641,38.2482161
6,山形県,最上保健所,996-0002,新庄市金沢字大道上2034,0233-29-1300,0233-22-2025,140.3519592,38.7661643
6,山形県,置賜保健所,992-0012,米沢市金池7-1-50（置賜総合支庁内）,0238-26-6000,0238-24-3003,140.117972,37.92622
6,山形県,庄内保健所,997-1392,東田川郡三川町大字横山字袖東19－1（庄内総合支庁内）,0235-66-2111,0235-66-4935,139.8494835,38.8009564
7,福島県,福島市保健所,960-8002,福島市森合町10番1号,024-525-7670,024-533-3315,140.4632725,37.76289
7,福島県,郡山市保健所,963-8024,郡山市朝日2－15－1,024-924-2120,024-934-2860,140.3593162,37.4054355
7,福島県,いわき市保健所,973-8408,いわき市内郷高坂町四方木田191番地,0246-27-8555,0246-27-8600,140.8644375,37.0443619
7,福島県,県北保健所,960-8012,福島市御山町8－30,024-534-4101,024-534-4105,140.4680163,37.764201
7,福島県,県中保健所,962-0834,須賀川市旭町153－1,0248-75-7800,0248-75-7824,140.3775844,37.2849547
7,福島県,県南保健所,961-0074,白河市字郭内127,0248-22-5441,0248-23-1252,140.2165967,37.130854
7,福島県,会津保健所,965-0873,会津若松市追手町7－40,0242-29-5504,0242-29-5509,139.9284,37.4915263
7,福島県,南会津保健所,967-0004,南会津郡南会津町田島字天道沢甲,0241-63-0302,0241-63-0310,139.7846988,37.2010038
7,福島県,相双保健所,975-0031,南相馬市原町区錦町1－30,0244-26-1323,0244-26-1332,140.9729329,37.6400139
8,茨城県,水戸市保健所,310-0852,水戸市笠原町993－13,029-305-6290,029-241-0350,140.4583351,36.3528801
8,茨城県,中央保健所,310-0852,水戸市笠原町993－2,029-241-0100,029-241-5313,140.4592572,36.3528626
8,茨城県,日立保健所,317-0065,日立市助川町2－6－15,0294-22-4188,0294-24-5132,140.6471578,36.5928716
8,茨城県,潮来保健所,311-2422,潮来市大洲1446－1,0299-66-2114,0299-66-1613,140.5554095,35.9471219
8,茨城県,竜ケ崎保健所,301-0822,龍ケ崎市2983－1,0297-62-2161,0297-64-2693,140.1823263,35.9116106
8,茨城県,土浦保健所,300-0812,土浦市下高津2－7－46,029-821-5342,029-826-5961,140.1909326,36.0707298
8,茨城県,筑西保健所,308-0021,筑西市甲114,0296-24-3911,0296-24-3928,139.9794265,36.3052343
8,茨城県,古河保健所,306-0005,古河市北町6－22,0280-32-3021,0280-32-4323,139.7155912,36.2040503
8,茨城県,つくば保健所,305-0035,つくば市松代4－27,029-851-9287,029-851-5680,140.1048079,36.0655803
8,茨城県,ひたちなか保健所,312-0005,ひたちなか市新光町95,029-265-5515,029-265-5040,140.5802619,36.3783453
9,栃木県,宇都宮市保健所,321-0974,宇都宮市竹林町972,028-626-1102,028-627-9244,139.8954857,36.5774836
9,栃木県,県西保健所,322-0068,鹿沼市今宮町1664－1,0289-64-3125,0289-64-3919,139.742412,36.5663689
9,栃木県,県東保健所,321-4305,真岡市荒町116-1,0285-82-3321,0285-84-7438,140.018417,36.4397422
9,栃木県,県南保健所,323-0811,小山市犬塚3－1－1,0285-22-0302,0285-22-8403,139.8262779,36.3141378
9,栃木県,県北保健所,324-8585,大田原市住吉町2－14－9,0287-22-2257,0287-23-6980,140.0221742,36.8720792
9,栃木県,安足保健所,326-0032,足利市真砂町1－1,0284-41-5900,0284-44-1088,139.4749262,36.3394352
10,群馬県,前橋市保健所,371-0014,前橋市朝日町3－36－17,027-220-5781,027-223-8835,139.0897628,36.3865366
10,群馬県,高崎市保健所,370-0829,高崎市高松町５番地２８,027-381-6111,027-381-6124,139.0018137,36.325233
10,群馬県,伊勢崎保健所,372-0024,伊勢崎市下植木町499,0270-25-5066,0270-24-8842,139.210106,36.3160119
10,群馬県,渋川保健所,377-0027,渋川市金井394,0279-22-4166,0279-24-3542,139.0059457,36.5117872
10,群馬県,藤岡保健所,375-0012,藤岡市下戸塚2－5,0274-22-1420,0274-22-3149,139.0870407,36.2538147
10,群馬県,富岡保健所,370-2454,富岡市田島343－1,0274-62-1541,0274-64-2397,138.8619488,36.2489801
10,群馬県,吾妻保健所,377-0425,吾妻郡中之条町大字西中之条183－1,0279-75-3303,0279-75-6091,138.8327356,36.5893273
10,群馬県,利根沼田保健所,378-0031,沼田市薄根町4412,0278-23-2185,0278-22-4479,139.0376048,36.6383965
10,群馬県,館林保健所,374-0066,館林市大街道1－2－25,0276-72-3230,0276-72-4628,139.5255337,36.251389
10,群馬県,安中保健所,379-0132,安中市高別当336-8,027-381-0345,027-382-6366,138.8809804,36.3242927
10,群馬県,桐生保健所,376-0011,桐生市相生町2－351,0277-53-4131,0277-52-1572,139.3107254,36.4141679
10,群馬県,太田保健所,373-0033,太田市西本町41－34,0276-31-8241,0276-31-8349,139.3610518,36.2955276
11,埼玉県,さいたま市保健所,338-0013,さいたま市中央区鈴谷7-5-12,048-840-2205,048-840-2228,139.6240143,35.87350920000001
11,埼玉県,川越市保健所,350-1104,川越市小ヶ谷817-1,049-227-5101,049-224-2261,139.4589429,35.9265462
11,埼玉県,川口市保健所,333-0842,埼玉県川口市前川1-11-1,048-266-5557,048-423-8852,139.7093242,35.8332949
11,埼玉県,越谷市保健所,343-0023,越谷市東越谷10-31,048-973-7530,048-973-7534,139.8029772,35.8996937
11,埼玉県,南部保健所,333-0842,川口市前川1－11－1,048-262-6111,048-261-0711,139.7093242,35.8332949
11,埼玉県,朝霞保健所,351-0016,朝霞市青葉台1-10-5,048-461-0468,048-461-0133,139.5928053,35.7900775
11,埼玉県,鴻巣保健所,365-0039,鴻巣市東4－5－10,048-541-0249,048-541-5020,139.5192103,36.06528309999999
11,埼玉県,東松山保健所,355-0037,東松山市若松町2－6－45,0493-22-0280,0493-22-4251,139.4110801,36.0301705
11,埼玉県,秩父保健所,368-0025,秩父市桜木町8－18,0494-22-3824,0494-22-2798,139.0819097,36.0028709
11,埼玉県,本庄保健所,367-0047,本庄市前原1－8－12,0495-22-6481,0495-22-6484,139.1785265,36.2388879
11,埼玉県,熊谷保健所,360-0031,熊谷市末広3－9－1,048-523-2811,048-523-4486,139.396465,36.1434329
11,埼玉県,加須保健所,347-0031,加須市南町5－15,0480-61-1216,0480-62-2936,139.5991176,36.1200781
11,埼玉県,春日部保健所,344-0038,春日部市大沼1－76,048-737-2133,048-736-4562,139.7467916,35.9680071
11,埼玉県,幸手保健所,340-0115,幸手市中1－16－4,0480-42-1101,0480-43-5158,139.7163641,36.07584689999999
11,埼玉県,坂戸保健所,350-0212,坂戸市石井2327－1,049-283-7815,049-284-2268,139.4079677,35.9684446
11,埼玉県,草加保健所,340-0035,草加市西町425－2,048-925-1551,048-925-1554,139.7956882,35.8293325
11,埼玉県,狭山保健所,350-1324,狭山市稲荷山2-16-1,04-2954-6212,04-2954-7535,139.3935005,35.8424849
12,千葉県,千葉市保健所,261-8755,千葉市美浜区幸町1－3－9,043-238-9920,043-203-5251,140.1013542,35.6100044
12,千葉県,船橋市保健所,273-8506,船橋市北本町1-16-55,047(409)3668,047(409)2952,139.9828135,35.7104136
12,千葉県,柏市保健所,277-0004,柏市柏下６５番地1,04-7167-1255,04-7167-1732,139.9866516,35.8669173
12,千葉県,市川保健所,272-0023,市川市南八幡5-11-22,047-377-1101,047-379-6623,139.9230136,35.7195084
12,千葉県,松戸保健所,271-8562,松戸市小根本7,047-361-2121,047-367-7554,139.9040062,35.78689019999999
12,千葉県,野田保健所,278-0006,野田市柳沢24,04-7124-8155,04-7124-2878,139.867596,35.953372
12,千葉県,印旛保健所,285-8520,佐倉市鏑木仲田町8－1,043-483-1133,043-486-2777,140.2320114,35.7143131
12,千葉県,長生保健所,297-0026,茂原市茂原1102－1,0475-22-5167,0475-24-3419,140.2865236,35.4265204
12,千葉県,夷隅保健所,299-5235,勝浦市出水1224,0470-73-0145,0470-73-0904,140.3171785,35.1509062
12,千葉県,市原保健所,290-0082,市原市五井中央南1－2－11,0436-21-6391,0436-22-8068,140.0823223,35.5121875
12,千葉県,君津保健所,292-0832,木更津市新田3－4－34,0438-22-3743,0438-25-4587,139.916719,35.3777724
12,千葉県,習志野保健所,275-0012,習志野市本大久保5－7－14,047-475-5151,047-475-5122,140.0559357,35.6856033
12,千葉県,香取保健所,287-0003,香取市佐原イ92-11,0478-52-9161,0478-54-5407,140.4949201,35.8945205
12,千葉県,海匝保健所,288-0817,銚子市清川町1-6-12,0479-22-0206,0479-24-9682,140.8250498,35.7282152
12,千葉県,山武保健所,283-0802,東金市東金907－1,0475-54-0611,0475-52-0274,140.3674195,35.5617607
12,千葉県,安房保健所,294-0045,館山市北条1093－1,0470-22-4511,0470-23-6694,139.8705863,34.9946346
13,東京都,千代田保健所,102-0073,千代田区九段北１－２－１４,03-5211-8161,03-5211-8190,139.7510008,35.6966305
13,東京都,中央区保健所,104-0044,中央区明石町12－1,03-3541-5936,03-3546-9554,139.7767393,35.666635
13,東京都,みなと保健所,108-8315,港区三田1-4-10,03-6400-0050,03-3455-4420,139.7430395,35.653958
13,東京都,新宿区保健所,160-0022,新宿区新宿５丁目１８番２１号,03-3209-1111,03-5273-3876,139.7053979,35.6942958
13,東京都,文京保健所,112-8555,文京区春日1－16－21,03-5803-1223,03-5803-1386,139.7527909,35.7079751
13,東京都,台東保健所,110-0015,台東区東上野4－22－8,03-3847-9401,03-3841-4325,139.7814653,35.7144672
13,東京都,墨田区保健所,130-8640,墨田区吾妻橋1－23－20,03-5608-6189,03-5608-6405,139.8014514,35.7106268
13,東京都,江東区保健所,135-0016,江東区東陽2－1－1,03-3647-5855,03-3615-7171,139.8142188,35.6657968
13,東京都,品川区保健所,140-8715,品川区広町2－1－36,03-5742-9132,03-5742-9104,139.7301566,35.6092231
13,東京都,目黒区保健所,153-8573,目黒区上目黒2－19－15,03-5722-9586,03-5722-9329,139.6980474,35.6413032
13,東京都,大田区保健所,144-8621,大田区蒲田5－13－14,03-5744-1262,03-5744-1523,139.7161,35.561451
13,東京都,世田谷保健所,154-8504,世田谷区世田谷4－22－35,03-5432-2432,03-5432-3022,139.6517816,35.64619
13,東京都,渋谷区保健所,150-8010,渋谷区宇田川町1－1,03-3463-1211,03-5458-4943,139.6979181,35.6637209
13,東京都,中野区保健所,164-0001,中野区中野2－17－4,03-3382-6661,03-3382-6667,139.6693657,35.702846
13,東京都,杉並保健所,167-0051,杉並区荻窪5－20－1,03-3391-1355,03-3391-1377,139.6202125,35.7022299
13,東京都,池袋保健所,170-0013,豊島区東池袋4-42-16,03-3987-4203,03-3987-4110,139.7208703,35.727547
13,東京都,北区保健所,114-0001,北区東十条2－7－3,03-3919-0376,03-3919-3308,139.730586,35.7629802
13,東京都,荒川区保健所,116-8502,荒川区荒川2-11-1,03-3802-3111,03-3806-2976,139.7833871,35.7370265
13,東京都,板橋区保健所,173-0014,板橋区大山東町３２－１５,03-3579-2332,03-3579-1337,139.707881,35.750574
13,東京都,練馬区保健所,176-8501,練馬区豊玉北6－12－1,03-3993-1111,03-5984-1211,139.6517047,35.7356708
13,東京都,足立保健所,120-0011,足立区中央本町1-5-3,03-3880-5891,03-3880-5602,139.8039761,35.7710465
13,東京都,葛飾区保健所,125-0062,葛飾区青戸4-15-14,03-3602-1231,03-3602-1298,139.8505312,35.7514865
13,東京都,江戸川保健所,132-8507,江戸川区中央4－24－19,03-5661-2464,03-3655-9925,139.8682575,35.7095832
13,東京都,八王子市保健所,192-0083,八王子市旭町１３－１８,042-645-5111,042-644-9100,139.3416429,35.6572734
13,東京都,町田市保健所,194-8520,町田市森野２丁目２番２２号　市庁舎７階,042-724-4241,050-3101-8202,139.4386447,35.5466429
13,東京都,多摩府中保健所,183-0022,府中市宮西町1-26-1（東京都府中合同庁舎内）,042-362-2334,042-360-2144,139.4772807,35.6709082
13,東京都,西多摩保健所,198-0042,青梅市東青梅1-167-15,0428-22-6141,0428-23-3987,139.2725799,35.7876443
13,東京都,島しょ保健所,163-8001,新宿区西新宿2－8－1,03-5320-4342,03-5388-1428,139.7096922,35.689045
13,東京都,南多摩保健所,206-0025,多摩市永山2－1－5,042-371-7661,042-375-6697,139.4473864,35.6279352
13,東京都,多摩立川保健所,190-0023,東京都立川市柴崎町2-21-19（東京都立川福祉保健庁舎内）,042-524-5171,042-528-2777,139.4086485,35.694059
13,東京都,多摩小平保健所,187-0002,小平市花小金井1－31－24,042-450-3111,042-450-3261,139.5165871,35.73008490000001
14,神奈川県,横浜市保健所,231-0005,横浜市中区本町6-50-10,045-671-4182,045-664-7296,139.6342277,35.4503614
14,神奈川県,川崎市保健所,212-0013,川崎市幸区堀川町580,044-200-2427,044-200-3986,139.6998239,35.5352045
14,神奈川県,相模原市保健所,252-0236,相模原市中央区富士見6-1-1,042-769-9241,042-750-3066,139.3740899,35.5698382
14,神奈川県,横須賀市保健所,238-0046,横須賀市西逸見町1－38－11,046-822-4300,046-822-4375,139.6525128,35.2843786
14,神奈川県,藤沢市保健所,251-0022,藤沢市鵠沼2131-1,0466-50-3592,0466-28-2020,139.4885601,35.3313187
14,神奈川県,茅ヶ崎市保健所,253-8660,茅ヶ崎市茅ヶ崎1－8－7,0467-85-1171,0467-82-0501,139.4000639,35.334069
14,神奈川県,平塚保健福祉事務所,254-0051,平塚市豊原町6－21,0463-32-0130,0463-35-4025,139.3379748,35.3352455
14,神奈川県,鎌倉保健福祉事務所,248-0014,鎌倉市由比ガ浜2－16－13,0467-24-3900,0467-24-4379,139.5471635,35.3126029
14,神奈川県,小田原保健福祉事務所,250-0042,小田原市荻窪350－1,0465-32-8000,0465-32-8138,139.1530506,35.2626426
14,神奈川県,厚木保健福祉事務所,243-0004,厚木市水引2－3－1,046-224-1111,046-225-4146,139.3575309,35.445188
15,新潟県,新潟市保健所,950-0914,新潟市中央区紫竹山３丁目３番１１号,025-212-8183,025-246-5672,139.0704134,37.900901
15,新潟県,新発田保健所,957-8511,新発田市豊町3－3－2,0254-26-9165,0254-26-6800,139.3403175,37.9379579
15,新潟県,新津保健所,956-0032,新潟市秋葉区南町9－33,0250-22-5171,0250-22-5188,139.1171462,37.793711
15,新潟県,三条保健所,955-0046,三条市興野1－13－45,0256-36-2360,0256-36-2365,138.9691525,37.6352356
15,新潟県,長岡保健所,940-0861,長岡市川崎町字前田2711－1,0258-33-4930,0258-33-4933,138.8770304,37.4524078
15,新潟県,魚沼保健所,946-0004,魚沼市大塚新田116－3,02579-2-1145,02579-2-6381,138.964855,37.23504459999999
15,新潟県,南魚沼保健所,949-6623,南魚沼市六日町620－2,0257-72-2457,0257-72-2190,138.8684775,37.0576786
15,新潟県,十日町保健所,948-0054,十日町市高山８５７,0257-57-2400,0257-57-2474,138.745597,37.128829
15,新潟県,柏崎保健所,945-0053,柏崎市鏡町11－9,0257-22-4165,0257-22-4190,138.5591328,37.3680951
15,新潟県,糸魚川保健所,941-0052,糸魚川市南押上1－15－1,0255-52-1783,025-552-8800,137.8791652,37.0452523
15,新潟県,村上保健所,958-0864,村上市肴町10－15,0254-53-3151,0254-52-2881,139.4695257,38.2258363
15,新潟県,佐渡保健所,952-1555,佐渡市相川2町目浜町20－1,0259-74-3315,0259-74-4563,138.2406466,38.0305937
15,新潟県,上越保健所,943-0807,上越市春日山町3－8－34,0255-24-6133,0255-24-6998,138.2344341,37.1410654
16,富山県,富山市保健所,939-8588,富山市蜷川459－1,076-428-1155,076-428-1150,137.2055674,36.6453371
16,富山県,高岡厚生センター,933-0806,高岡市赤祖父211,0766-26-8413,0766-26-8464,137.0224181,36.7327295
16,富山県,新川厚生センター,938-0025,黒部市堀切新343,0765-52-1224,0765-52-4440,137.4410116,36.8757889
16,富山県,中部厚生センター,930-0355,中新川郡上市町横法音寺40,076-472-1234,076-473-0667,137.3546956,36.7031433
16,富山県,砺波厚生センター,939-1506,南砺市高儀147,0763-22-3511,0763-22-7235,136.933417,36.6049805
17,石川県,金沢市保健所,920-8533,金沢市西念3－4－25,076-234-5102,076-234-5104,136.6355342,36.5898381
17,石川県,南加賀保健所,923-8648,小松市園町ヌ48,0761-22-0793,0761-22-0805,136.4649396,36.41101159999999
17,石川県,石川中央保健所,924-0864,白山市馬場2丁目7番地,076-275-2251,076-275-2257,136.5639646,36.5193473
17,石川県,能登中部保健所,926-0021,七尾市本府中町ソ部27番9,0767-53-2482,0767-53-2484,136.9718523,37.0401374
17,石川県,能登北部保健所,928-0079,輪島市鳳至町畠田102－4,0768-22-2011,0768-22-5550,136.8967309,37.3919959
18,福井県,福井市保健所,918-8004,福井市西木田２丁目８番８号,0776－33－5182,0776－33－5473,136.2138273,36.0546268
18,福井県,福井保健所,918-8540,福井市西木田2－8－8,0776-36-1116,0776-34-7215,136.2138273,36.0546268
18,福井県,坂井保健所,919-0632,あわら市春宮2－21－17,0776-73-0600,0776-73-0763,136.2314236,36.2185109
18,福井県,二州保健所,914-0057,敦賀市開町6－5,0770-22-3747,0770-24-1205,136.0685048,35.6468665
18,福井県,若狭保健所,917-0073,小浜市四谷町3－10,0770-52-1300,0770-52-1058,135.7479156,35.4963142
18,福井県,奥越保健所,912-0084,大野市天神町1の1,0779-66-2076,0779-65-8410,136.487702,35.9812115
18,福井県,丹南保健所,916-0022,鯖江市水落町1－2－25,0778-51-0034,0778-51-7804,136.1825115,35.9599023
19,山梨県,甲府市保健所,400-0858,山梨県甲府市相生2-17-1,055-237-2586,055-227-5294,138.5678018,35.6561679
19,山梨県,中北保健所,407-0024,韮崎市本町四丁目2-4,0551-23-3443,0551-23-3075,138.4586601,35.70077740000001
19,山梨県,峡東保健所,405-0003,山梨市下井尻126－1,0553-20-2750,0553-20-2754,138.7127899,35.7037413
19,山梨県,峡南保健所,400-0692,南巨摩郡富士川町鰍沢771-2,0556-22-8145,0556-22-8147,138.4629927,35.5467195
19,山梨県,富士・東部保健所,403-0005,富士吉田市上吉田1－2－5,0555-24-9032,0555-24-9037,138.8010438,35.4805617
20,長野県,長野市保健所,380-0928,長野市若里6－6－1,026-226-9941,026-226-9981,138.1923428,36.6268745
20,長野県,松本市保健所,390-0852,松本市大字島立1020松本合同庁舎内１Ｆ,0263-40-0700,,137.943523,36.234887
20,長野県,佐久保健所,385-8533,佐久市跡部65－1,0267-63-3162,0267-63-3221,138.4615629,36.2295551
20,長野県,上田保健所,386-8555,上田市材木町1－2－6,0268-25-7147,0268-23-1973,138.2607773,36.40022039999999
20,長野県,諏訪保健所,392-8601,諏訪市上川1－1644－10,0266-57-2925,0266-57-2953,138.1073764,36.0339667
20,長野県,伊那保健所,396-8666,伊那市荒井3497伊那合同庁舎内,0265-76-6835,0265-76-7033,137.957594,35.8394858
20,長野県,飯田保健所,395-0034,飯田市追手町2－678,0265-53-0442,0265-53-0469,137.8294179,35.5137784
20,長野県,木曽保健所,397-8550,木曽郡木曽町福島2757-1,0264-25-2231,0264-24-2276,137.6879986,35.8390986
20,長野県,松本保健所,390-0852,松本市大字島立1020,0263-40-1937,0263-47-9293,137.9435318,36.2348871
20,長野県,大町保健所,398-8602,大町市大字大町1058－2,0261-23-6525,0261-23-2266,130.1220381,33.2137902
20,長野県,長野保健所,380-0936,長野市中御所岡田98－1,026-223-2131,026-223-7669,138.182844,36.635368
20,長野県,北信保健所,389-2255,飯山市大字静間1340－1,0269-62-3105,0269-62-6036,138.3590712,36.8363304
21,岐阜県,岐阜市保健所,500-8309,岐阜市都通2－19,058-252-7197,058-252-0639,136.7466599,35.4197712
21,岐阜県,関保健所,501-3756,美濃市生櫛1612－2,0575-33-4011,0575-33-4701,136.9002985,35.5305909
21,岐阜県,東濃保健所,507-8708,多治見市上野町5－68－1,0572-23-1111,0572-25-6657,137.1269702,35.3450808
21,岐阜県,恵那保健所,509-7203,恵那市長島町正家後田1067－71,0573-26-1111,0573-25-1174,137.4171819,35.4262957
21,岐阜県,岐阜保健所,504-0838,各務原市那加不動丘1－1,058-380-3001,058-371-1233,136.8444864,35.4074534
21,岐阜県,西濃保健所,503-0838,大垣市江崎町422－3,0584-73-1111,0584-74-9334,136.6332405,35.355954
21,岐阜県,可茂保健所,505-8508,美濃加茂市古井町下古井2610－1,0574-25-3111,0574-28-7162,137.0250512,35.4395085
21,岐阜県,飛騨保健所,506-8688,高山市上岡本町7－468,0577-33-1111,0577-34-8327,137.2409721,36.1446419
22,静岡県,静岡市保健所,420-0846,静岡市葵区城東町24－1,054-249-3170,054-249-3153,138.387513,34.9854851
22,静岡県,浜松市保健所,432-8550,浜松市中区鴨江2－11－2,053-453-6111,053-453-6124,137.7136647,34.7052138
22,静岡県,賀茂保健所,415-0016,下田市中531－1,0558-24-2051,0558-24-2169,138.9507522,34.6825678
22,静岡県,熱海保健所,413-0016,熱海市水口町13－15,0557-82-9125,0557-82-9131,139.0687318,35.0956064
22,静岡県,御殿場保健所,412-0039,御殿場市竃1113,0550-82-1224,0550-82-4345,138.9230788,35.2801703
22,静岡県,富士保健所,416-0906,富士市本市場441－1,0545-65-2151,0545-65-2288,138.6618355,35.1565667
22,静岡県,東部保健所,410-8543,沼津市高島本町1－3,055-920-2082,055-920-2194,138.8566562,35.1069933
22,静岡県,中部保健所,426-8664,藤枝市瀬戸新屋362－1,054-644-9273,054-644-4471,138.2362002,34.8484481
22,静岡県,西部保健所,438-8622,磐田市見付3599－4,0538-37-2793,0538-37-2241,137.8516524,34.7278165
23,愛知県,名古屋市保健所,460-8508,名古屋市中区三の丸三丁目1番1号,052-972-2623,052-972-4154,136.9060781,35.1814348
23,愛知県,豊橋市保健所,441-8539,豊橋市中野町字中原100番地,0532-39-9111,0532-38-0780,137.3710125,34.7332696
23,愛知県,岡崎市保健所,444-8545,岡崎市若宮町2-1-1,0564-23-6179,0564-23-5041,137.1809479,34.953312
23,愛知県,一宮市保健所,491-0867,一宮市古金町1－3,0586-52-3851,0586-24-9388,136.8096587,35.2996173
23,愛知県,豊田市保健所,471-8501,豊田市西町3－60,0565-34-6723,0565-31-6320,137.1561132,35.0834548
23,愛知県,瀬戸保健所,489-0808,瀬戸市見付町38－1,0561-82-2196,0561-82-9188,137.0819707,35.2194395
23,愛知県,半田保健所,475-0903,半田市出口町1－45－4,0569-21-3341,0569-24-7142,136.9246463,34.9026171
23,愛知県,春日井保健所,486-0927,春日井市柏井町2－31,0568-31-2188,0568-34-3781,136.9592684,35.2363876
23,愛知県,豊川保健所,442-0068,豊川市諏訪3－237,0533-86-3188,0533-89-6758,137.3694125,34.8279483
23,愛知県,津島保健所,496-0038,津島市橘町4－50－2,0567-26-4137,0567-28-6891,136.731795,35.1732001
23,愛知県,西尾保健所,445-0073,西尾市寄住町下田12,0563-56-5241,0563-54-6791,137.0616519,34.863273
23,愛知県,江南保健所,483-8146,江南市布袋下山町西80,0587-56-2157,0587-54-5422,136.8683041,35.317034
23,愛知県,新城保健所,441-1326,新城市字中野6－1,0536-22-2203,0536-23-6358,137.505783,34.9011052
23,愛知県,知多保健所,478-0001,知多市八幡字荒古後88－2,0562-32-6211,0562-33-7299,136.8790813,35.0039047
23,愛知県,清須保健所,452-0961,清須市春日振形129（清須市春日老人福祉センター内）,052-401-2100,052-401-2113,136.8416926,35.2376293
23,愛知県,衣浦東部保健所,448-0857,刈谷市大手町1－12,0566-21-4778,0566-25-1470,137.0049398,34.9887519
24,三重県,四日市市保健所,510-0085,三重県四日市市諏訪町２番２号,059-352-0590,059-351-3304,136.6236944,34.9651799
24,三重県,桑名保健所,511-8567,桑名市中央町5－71,0594-24-3621,0594-24-3692,136.6860658,35.059873
24,三重県,鈴鹿保健所,513-0809,鈴鹿市西条5－117,059-382-8671,059-382-7958,136.5688626,34.8780113
24,三重県,津保健所,514-8567,津市桜橋3－446－34,059-223-5184,059-223-5119,136.5167509,34.7377954
24,三重県,松阪保健所,515-0011,松阪市高町138,0598-50-0531,0598-50-0621,136.5459794,34.5807459
24,三重県,伊勢保健所,516-8566,伊勢市勢田町628-2,0596-27-5148,0596-27-5253,136.7114796,34.4800402
24,三重県,伊賀保健所,518-8533,伊賀市四十九町2802,0595-24-8070,0595-24-8085,136.1439694,34.7499176
24,三重県,尾鷲保健所,519-3695,尾鷲市坂場西町1－1,0597-23-3454,0597-23-3449,136.1903452,34.0803435
24,三重県,熊野保健所,519-4324,熊野市井戸町383,0597-89-6115,0597-85-3914,136.0948946,33.8885411
25,滋賀県,大津市保健所,520-0047,大津市浜大津四丁目１番１号,077-522-6755,077-525-6161,135.8628392,35.012266
25,滋賀県,草津保健所,525-8525,草津市草津三丁目14－75,077-562-3526,077-562-3533,135.9608518,35.0126742
25,滋賀県,甲賀保健所,528-8511,甲賀市水口町水口6200,0748-63-6111,0748-63-6142,136.1653119,34.9649208
25,滋賀県,東近江保健所,527-0023,東近江市八日市緑町8－22,0748-22-1253,0748-22-1617,136.2062878,35.1138759
25,滋賀県,彦根保健所,522-0039,彦根市和田町41,0749-22-1770,0749-26-7540,136.2496089,35.2585249
25,滋賀県,長浜保健所,526-0033,長浜市平方町1152－2,0749-65-6660,0749-63-2989,136.2860136,35.3781866
25,滋賀県,高島保健所,520-1621,高島市今津町今津448－45,0740-22-2525,0740-22-5693,136.0334898,35.3954515
26,京都府,京都市保健所,604-8101,京都市中京区柳馬場通御池下る柳八幡町65番地,075-222-3411,075-222-3416,135.7637772,35.0104064
26,京都府,乙訓保健所,617-0006,向日市上植野町馬立8,075-933-1151,075-932-6910,135.6992,34.940083
26,京都府,山城北保健所,611-0021,宇治市宇治若森7－6,0774-21-2191,0774-24-6215,135.7975476,34.8877494
26,京都府,山城南保健所,619-0214,木津川市木津上戸18－１,0774-72-4300,0774-72-8412,135.8258786,34.73763640000001
26,京都府,南丹保健所,622-0041,南丹市園部町小山東町藤ノ木21,0771-62-4751,0771-63-0609,135.4820762,35.1043865
26,京都府,中丹西保健所,620-0055,福知山市篠尾新町1－91,0773-22-5744,0773(22)4350,135.1130443,35.2993238
26,京都府,中丹東保健所,624-0906,舞鶴市字倉谷1350-23,0773-75-0805,0773-76-7746,135.3399116,35.4448599
26,京都府,丹後保健所,627-8570,京丹後市峰山町丹波855,0772-62-0361,0772-62-4368,135.0730999,35.6262461
27,大阪府,大阪市保健所,545-0051,大阪市阿倍野区旭町1丁目2番7-1000号（あべのメディックス10階）,06-6647-0641,06-6647-0803,135.5100955,34.646909
27,大阪府,堺市保健所,590-0078,堺市堺区南瓦町3番1号,072-222-9933,072-222-9876,135.4829962,34.5732755
27,大阪府,豊中市保健所,561-0881,豊中市中桜塚4-11-1,06-6152-7307,06-6152-7328,135.4724058,34.7800134
27,大阪府,高槻市保健所,569-0052,高槻市城東町5－7,072-661-9333,072-661-1800,135.6285152,34.8431687
27,大阪府,枚方市保健所,573-0027,大阪府枚方市大垣内町2丁目2番2号,072-807-7623,072-845-0685,135.6517358,34.8149277
27,大阪府,八尾市保健所,581-0006,八尾市清水町一丁目2-5,072-994-0661,072-922-4965,135.6019522,34.6255102
27,大阪府,東大阪市保健所,578-0941,東大阪市岩田町4－3－22－300,072-960-3800,072-960-3806,135.6078147,34.6635324
27,大阪府,寝屋川市保健所,572-0838,寝屋川市八坂町２８番３号,072-829-7771,072-838-1152,135.6217951,34.76655410000001
27,大阪府,吹田市保健所,564-0072,吹田市出口町19-3,06-6339-2225,06-6339-2058,135.5146258,34.7638067
27,大阪府,池田保健所,563-0041,池田市満寿美町3－19,072-751-2990,072-751-3234,135.4272185,34.8194555
27,大阪府,茨木保健所,567-0813,茨木市大住町8－11,072-624-4668,072-623-6856,135.5756434,34.8231886
27,大阪府,守口保健所,570-0083,守口市京阪本通2-5-5,06-6993-3131,06-6993-3136,135.5634464,34.7383741
27,大阪府,四條畷保健所,575-0034,四條畷市江瀬美町1－16,072-878-1021,072-876-4484,135.6366002,34.7374245
27,大阪府,藤井寺保健所,583-0024,藤井寺市藤井寺1－8－36,072-955-4181,072-939-6479,135.5971685,34.5668061
27,大阪府,富田林保健所,584-0031,富田林市寿町3－1－35,0721-23-2681,0721-24-7940,135.5935299,34.5017814
27,大阪府,和泉保健所,594-0071,和泉市府中町6－12－3,0725-41-1342,0725-43-9136,135.4281067,34.4888125
27,大阪府,岸和田保健所,596-0076,岸和田市野田町3－13－1,072-422-5681,072-422-7501,135.3803776,34.4547862
27,大阪府,泉佐野保健所,598-0001,泉佐野市上瓦屋583－1,072-462-7701,072-462-5426,135.3354706,34.4160919
28,兵庫県,神戸市保健所,650-8570,神戸市中央区加納町6－5－1,078-335-2117,078-322-6052,135.1949792,34.6897142
28,兵庫県,姫路市保健所,670-8530,姫路市坂田町3,079-289-1631,079-289-0210,134.6996388,34.8322493
28,兵庫県,尼崎市保健所,660-0052,尼崎市七松町1－3－1－502,06-4869-3010,06-4869-3049,135.3995881,34.736845
28,兵庫県,あかし保健所,674-0068,明石市大久保町ゆりのき通1丁目4－7,078-918-5414,078-918-5440,134.9372607,34.6826131
28,兵庫県,西宮市保健所,662-0855,西宮市江上町3－26,0798-26-3666,0798-33-1174,135.3410787,34.7409572
28,兵庫県,芦屋保健所,659-0065,芦屋市公光町1－23,0797-32-0707,0797-38-1340,135.3043018,34.7314701
28,兵庫県,伊丹保健所,664-0898,伊丹市千僧1－51,072-785-9437,072-777-4091,135.403924,34.7848314
28,兵庫県,宝塚保健所,665-0032,宝塚市東洋町2-5,0797-61-5172,0797-61-5188,135.3619046,34.798954
28,兵庫県,加古川保健所,675-8566,加古川市加古川町寺家町天神木97-1,079-421-9109,079-422-7589,134.8353438,34.7691387
28,兵庫県,加東保健所,673-1431,加東市社字西柿1075－2,0795-42-5111,0795-42-4050,134.9661827,34.9157667
28,兵庫県,龍野保健所,679-4167,たつの市龍野町富永1311－3,0791-63-5149,0791-63-9234,134.5475818,34.8610636
28,兵庫県,赤穂保健所,678-0239,赤穂市加里屋98－2,0791-43-2321,0791-43-5386,134.3870397,34.7563039
28,兵庫県,福崎保健所,679-2204,神崎郡福崎町西田原235,0790-22-1234,0790-22-6680,134.7617667,34.958091
28,兵庫県,豊岡保健所,668-0025,豊岡市幸町7－11,0796-26-3654,0796-24-4410,134.8207224,35.5507455
28,兵庫県,朝来保健所,669-5202,朝来市和田山町東谷213－96,079-672-6863,079-672-5992,134.8500577,35.3397147
28,兵庫県,丹波保健所,669-3309,丹波市柏原町柏原688,0795-73-3776,0795-73-0259,135.0829479,35.1295875
28,兵庫県,洲本保健所,656-0021,洲本市塩屋2－4－5,0799-26-2018,0799-22-3345,134.8897469,34.3473376
29,奈良県,奈良市保健所,630-8122,奈良市三条本町１３番１号,0742-93-8395,0742-34-2485,135.8173557,34.6791886
29,奈良県,郡山保健所,639-1041,大和郡山市満願寺町60-1,0743-51-0191,0743-52-6095,135.7653269,34.6349883
29,奈良県,中和保健所,634-8507,橿原市常盤町６０５番地の５,0744-48-3030,0744-48-3132,135.8167215,34.5225598
29,奈良県,内吉野保健所,637-0041,五條市本町3－1－13,0747-22-3051,0747-25-3623,135.6935169,34.3520322
29,奈良県,吉野保健所,638-0045,吉野郡下市町新住15－3,0747-52-0551,0747-52-7259,135.7859317,34.3758658
30,和歌山県,和歌山市保健所,640-8137,和歌山市吹上5－2－15,073-433-2261,073-431-9980,135.171676,34.2196636
30,和歌山県,海南保健所,642-0022,海南市大野中939,073-482-0600,073-482-3786,135.226243,34.1595353
30,和歌山県,岩出保健所,649-6223,岩出市高塚209,0736-63-0100,0736-61-0013,135.3242514,34.2597426
30,和歌山県,橋本保健所,649-7203,橋本市高野口町名古曽927,0736-42-3210,0736-42-5468,135.5588677,34.30223429999999
30,和歌山県,湯浅保健所,643-0004,有田郡湯浅町湯浅2355－1,0737-63-4111,0737-64-1261,135.1933634,34.0391939
30,和歌山県,御坊保健所,644-0011,御坊市湯川町財部859－2,0738-22-3481,0738-22-8751,135.1597943,33.9021171
30,和歌山県,田辺保健所,646-0027,田辺市朝日ヶ丘23－1,0739-22-1200,0739-26-7935,135.3930115,33.7350091
30,和歌山県,新宮保健所,647-8551,新宮市緑ヶ丘2－4－8,0735-22-8551,0735-21-9639,135.9892345,33.7193313
31,鳥取県,鳥取市保健所,680-0845,鳥取市富安二丁目138-4,0857-22-5163,0857-20-3964,134.2270977,35.4918077
31,鳥取県,倉吉保健所,682-0802,倉吉市東巌城町2,0858-23-3145,0858-23-4803,133.8443247,35.43944500000001
31,鳥取県,米子保健所,683-0802,米子市東福原1丁目1－45,0859-31-9315,0859-34-1392,133.3415734,35.43753900000001
32,島根県,松江市・島根県共同設置松江保健所　,690-0011　,松江市東津田町1741-3　,0852-23-1313　,0852-21-2770　,133.0851643,35.4472932
32,島根県,雲南保健所,699-1396,雲南市木次町里方531－1,0854-42-9623,0854-42-9654,132.9003609,35.3086901
32,島根県,出雲保健所,693-0021,出雲市塩冶町223－1,0853-21-1190,0853-21-7428,132.7513925,35.3456651
32,島根県,浜田保健所,697-0041,浜田市片庭町254,0855-29-5537,0855-22-7009,132.0706429,34.8978256
32,島根県,益田保健所,698-0007,益田市昭和町13－1,0856-31-9535,0856-31-9568,131.8512675,34.6778687
32,島根県,県央保健所,694-0041,大田市長久町長久ハ７－１,0854-84-9800,0854-84-9819,132.4947034,35.2009919
32,島根県,隠岐保健所,685-8601,隠岐郡隠岐の島町港町塩口24,08512-2-9701,08512-2-9716,133.328028,36.2023023
33,岡山県,岡山市保健所,700-8546,岡山市北区鹿田町1－1－1,086-803-1200,086-803-1757,133.9186152,34.6544541
33,岡山県,倉敷市保健所,710-0834,倉敷市笹沖170番地,086-434-9800,086-434-9805,133.7650425,34.5723628
33,岡山県,備中保健所,710-8530,倉敷市羽島1083,086-434-7020,086-425-1941,133.7788663,34.602423
33,岡山県,備北保健所,716-8585,高梁市落合町近似286－1,0866-21-2836,0866-22-8098,133.6552791,34.7989962
33,岡山県,真庭保健所,717-8501,真庭市勝山591,0867-44-2990,0867-44-2917,133.6934702,35.0819134
33,岡山県,美作保健所,708-0051,津山市椿高下114,0868-23-0111,0868-23-6129,134.0021697,35.0652443
33,岡山県,備前保健所,703-8278,岡山市中区古京町1－1－17,086-272-3950,086-271-0317,133.9396468,34.6628728
34,広島県,広島市保健所,730-8586,広島市中区国泰寺町一丁目６番３４号,082-504-2178,082-504-2258,132.4554235,34.3852745
34,広島県,福山市保健所,720-8512,福山市三吉町南2－11－22,084-928-1164,084-928-1143,133.3790463,34.4892425
34,広島県,呉市保健所,737-0041,呉市和庄1－2－13,0823-25-3534,0823-24-6826,132.5711367,34.2474045
34,広島県,西部保健所,738-0004,廿日市市桜尾2－2－68,0829-32-1181,0829-32-0640,132.3433709,34.3563929
34,広島県,西部東保健所,739-0014,東広島市西条昭和町13－10,082-422-6911,082-422-4161,132.7435823,34.4256593
34,広島県,東部保健所,722-0002,尾道市古浜町26-12,0848-25-2011,0848-25-2461,133.1733161,34.3974025
34,広島県,北部保健所,728-0013,三次市十日市東4－6－1,0824-63-5181,0824-63-5190,132.8594853,34.8048137
35,山口県,下関保健所,750-0006,下関市南部町1－6,083-231-1111,083-231-1376,130.9408744,33.9572077
35,山口県,岩国環境保健所,740-0016,岩国市三笠町1－1－1,0827-29-1512,0827-29-1594,132.2251636,34.167024
35,山口県,柳井環境保健所,742-0031,柳井市南町3-9-3,0820-22-3631,0820-22-7286,132.1020582,33.9624896
35,山口県,周南環境保健所,745-0004,周南市毛利町2－38,0834-33-6421,0834-33-6510,131.8107246,34.0561592
35,山口県,山口環境保健所,753-8588,山口市吉敷下東3-1-1,083-934-2525,083-934-2527,131.4458434,34.1608349
35,山口県,宇部環境保健所,755-0033,宇部市琴芝町1-1-50,0836-31-3200,0836-34-4121,131.2503009,33.955584
35,山口県,長門環境保健所,759-4101,長門市東深川1344－1,0837-22-2811,0837-22-6363,131.1841512,34.3708462
35,山口県,萩環境保健所,758-0041,萩市江向河添沖田531－1,0838-25-2663,0838-26-0696,131.3974394,34.4077547
36,徳島県,徳島保健所,770-0855,徳島市新蔵町3－80,088-652-5151,088-652-9334,134.5606766,34.0699809
36,徳島県,阿南保健所,774-0011,阿南市領家町野神319,0884-22-0072,0884-22-6404,134.6712729,33.9237782
36,徳島県,美波保健所,779-2305,海部郡美波町奥河内字弁才天17-1,0884-74-7343,0884-74-7365,134.5320987,33.7280928
36,徳島県,吉野川保健所,776-0010,吉野川市鴨島町鴨島106-2,0883-24-1114,0883-22-1760,134.3583299,34.067513
36,徳島県,美馬保健所,777-0005,美馬市穴吹町穴吹字明連23,0883-52-1017,0883-53-9446,134.1566047,34.0565767
36,徳島県,三好保健所,778-0002,三好市池田町マチ2542-4,0883-72-1122,0883-72-6884,133.8020929,34.0290423
37,香川県,高松市保健所,760-0074,高松市桜町1－10－27,087-839-2860,087-839-2879,134.0526467,34.3304823
37,香川県,小豆保健所,761-4121,小豆郡土庄町渕崎甲2079－5,0879-62-1373,0879-62-1384,134.193064,34.4877619
37,香川県,西讃保健所,768-0067,観音寺市坂本町7－3－18,0875-25-3082,0875-25-6320,133.6590078,34.1273175
37,香川県,東讃保健所,769-2401,　さぬき市津田町津田930番地2,0879-29-8250,0879-42-5881,134.2486184,34.2894014
37,香川県,中讃保健所,763-0082,丸亀市土器町東八丁目５２６番地,0877-24-9960,0877-24-8340,133.805829,34.3009021
38,愛媛県,松山市保健所,790-0813,松山市萱町6－30－5,089-911-1800,089-923-6618,132.7577232,33.8524566
38,愛媛県,四国中央保健所,799-0404,四国中央市三島宮川4－6－55,0896-23-3360,0896-28-1043,133.5498512,33.9806724
38,愛媛県,今治保健所,794-8502,今治市旭町1－4－9,0898-23-2500,0898-23-2531,132.9994212,34.0632635
38,愛媛県,中予保健所,790-8502,松山市北持田町132,089-941-1111,089-931-8455,132.776783,33.8454476
38,愛媛県,宇和島保健所,798-8511,宇和島市天神町7－1,0895-22-5211,0895-24-6806,132.5704637,33.2277019
38,愛媛県,西条保健所,793-0042,西条市喜多川796－1,0897-56-1300,0897-56-3848,133.1693428,33.923985
38,愛媛県,八幡浜保健所,796-0048,八幡浜市北浜1－3－37,0894-22-4111,0894-22-0631,132.4224124,33.4625052
39,高知県,高知市保健所,780-0850,高知市丸ノ内1－7－45,088-822-0577,088-822-1880,133.5279607,33.5601454
39,高知県,幡多福祉保健所,787-0028,四万十市中村山手通19,0880-34-5120,0880-35-5980,132.930966,32.9923778
39,高知県,須崎福祉保健所,785-0005,須崎市東古市町6－26,0889-42-1875,0889-42-8924,133.2873878,33.3906449
39,高知県,中央東福祉保健所,782-0016,香美市土佐山田町山田1128－1,0887-53-3171,0887-52-4561,133.690061,33.596347
39,高知県,中央西福祉保健所,789-1201,高岡郡佐川町甲1243－4,0889-22-1240,0889-22-9031,133.2932016,33.4988262
39,高知県,安芸福祉保健所,784-0001,安芸市矢の丸1－4－36,0887-34-3175,0887-35-8654,133.9074409,33.5035577
40,福岡県,北九州市保健所,802-8560,北九州市小倉北区馬借一丁目7番1号,093-522-8726,093-522-8774,130.8781021,33.880195
40,福岡県,中央保健所,810-0073,福岡市中央区舞鶴2-5-1,092-761-7318,092-734-1690,130.3905017,33.5919467
40,福岡県,博多保健所,812-8514,福岡市博多区博多駅前2-19-24 　　　大博センタービル,092-419-1089,092-441-0057,130.4164198,33.592127
40,福岡県,南保健所,815-0032,福岡市南区塩原3－25－3,092-559-5114,092-541-9914,130.4267116,33.5612119
40,福岡県,早良保健所,814-0006,福岡市早良区百道1－18－18,092-851-6659,092-822-5733,130.3486141,33.5842204
40,福岡県,東保健所,812-0053,福岡市東区箱崎2－54－27,092-645-1076,092-651-3844,130.4176638,33.6182559
40,福岡県,西保健所,819-0005,福岡市西区内浜1-4-7,092-895-7071,092-891-9894,130.32312,33.5824407
40,福岡県,城南保健所,814-0103,福岡市城南区鳥飼5－2－25,092-831-4207,092-822-5844,130.3709103,33.5757238
40,福岡県,久留米市保健所,830－0022,久留米市城南町15－5,0942-30-9724,0942-30-9833,130.5098251,33.318771
40,福岡県,宗像・遠賀保健福祉環境事務所,811-3436,宗像市東郷1丁目2番1号,0940-36-2045,0940-36-2592,130.540674,33.804629
40,福岡県,粕屋保健福祉事務所,811-2318,糟屋郡粕屋町戸原東1丁目7番26号,092-939-1500,092-939-1186,130.4749237,33.6199632
40,福岡県,筑紫保健福祉環境事務所,816-0943,大野城市白木原3丁目5番25号,092-513-5610,092-513-5598,130.4830166,33.5304222
40,福岡県,糸島保健福祉事務所,819-1112,糸島市浦志2丁目3番1号,092-322-5186,092-322-9252,130.2079905,33.5636382
40,福岡県,田川保健福祉事務所,825-8577,田川市大字伊田3292番地2,0947-42-9313,0947-44-6112,130.8091349,33.6455824
40,福岡県,北筑後保健福祉環境事務所,838-0068,朝倉市甘木2014番地1,0946-22-4185,0946-24-9260,130.655746,33.4259266
40,福岡県,南筑後保健福祉環境事務所,832-0823,柳川市三橋町今古賀8番地1,0944-72-2111,0944-74-3295,130.4164107,33.1571888
40,福岡県,京築保健福祉環境事務所,824-0005,行橋市中央1丁目2番1号,0930-23-2379,0930-23-4880,130.9797054,33.7283237
40,福岡県,嘉穂・鞍手保健福祉環境事務所,820-0004,飯塚市新立岩8番1号,0948-21-4911,0948-24-0186,130.6898294,33.6482181
41,佐賀県,佐賀中部保健福祉事務所,849-8585,佐賀市八丁畷町1－20,0952-30-1321,0952-33-4627,130.2978095,33.271883
41,佐賀県,鳥栖保健福祉事務所,841-0051,鳥栖市元町1234－1,0942-83-2161,0942-84-1849,130.5100511,33.3720001
41,佐賀県,唐津保健福祉事務所,847-0012,唐津市大名小路3－1,0955-73-4185,0955-75-0438,129.9730932,33.4513224
41,佐賀県,伊万里保健福祉事務所,848-0041,伊万里市新天町122－4,0955-23-2101,0955-22-3829,129.8778001,33.2681736
41,佐賀県,杵藤保健福祉事務所,843-0023,武雄市武雄町昭和265,0954-22-2103,0954-22-4573,130.0279368,33.1947341
42,長崎県,長崎市保健所,850-0031,長崎市桜町6－3,095-829-1153,095-829-1221,129.8785818,32.7499529
42,長崎県,佐世保市保健所,857-0042,佐世保市高砂町５番１号,0956-24-1111,0956-25-9684,129.7152297,33.1785847
42,長崎県,壱岐保健所,811-5133,壱岐市郷ノ浦町本村触620,0920-47-0260,0920-47-6357,129.6926372,33.7488202
42,長崎県,西彼保健所,852-8061,長崎市滑石1－9－5,095-856-0691,095-856-0692,129.849977,32.8074236
42,長崎県,県央保健所,854-0081,諌早市栄田町26－49,0957-26-3304,0957-26-9870,130.0382745,32.8591013
42,長崎県,県南保健所,855-0043,島原市新田町347－9,0957-62-3287,0957-64-6520,130.3748333,32.7890493
42,長崎県,県北保健所,859-4807,平戸市田平町里免1126－1,0950-57-3933,0950-57-3666,129.5855741,33.3628497
42,長崎県,五島保健所,853-0007,五島市福江町7－2,0959-72-3125,0959-72-7761,128.8401941,32.6958914
42,長崎県,上五島保健所,857-4211,南松浦郡新上五島町有川郷2254－17,0959-42-1121,0959-42-1124,129.1165377,32.9805273
42,長崎県,対馬保健所,817-8520,対馬市厳原町宮谷224,0920-52-0166,0920-52-7403,129.289686,34.2102138
43,熊本県,熊本市保健所,862-0971,熊本市中央区大江5-1-1,096-364-3186,096-371-5172,130.7193169,32.7986746
43,熊本県,山鹿保健所,861-0501,山鹿市山鹿465－2,0968-44-4121,0968-44-4123,130.6971199,33.0144818
43,熊本県,菊池保健所,861-1331,菊池市隈府1272－10,0968-25-4156,0968-25-5457,130.8126937,32.9856398
43,熊本県,阿蘇保健所,869-2612,阿蘇市一の宮町宮地2402,0967-24-9030,0967-24-9031,131.1143787,32.9387289
43,熊本県,御船保健所,861-3206,上益城郡御船町辺田見400,096-282-0016,096-282-3117,130.8032823,32.7082714
43,熊本県,八代保健所,866-8555,八代市西片町1660,0965-32-6121,0965-33-6321,130.6346058,32.5117654
43,熊本県,水俣保健所,867-0061,水俣市八幡町2－2－13,0966-63-4104,0966-63-3289,139.5558475,35.7181686
43,熊本県,人吉保健所,868-0072,人吉市西間下町86-1,0966-22-3107,0966-22-4392,130.7589282,32.2064635
43,熊本県,有明保健所,865-0016,玉名市岩崎1004－1,0968-72-2184,0968-74-1721,130.5590789,32.9314599
43,熊本県,宇城保健所,869-0532,宇城市松橋町久具400－1,0964-32-1147,0964-32-2426,130.6905426,32.6477882
43,熊本県,天草保健所,863-0013,天草市今釜新町3530,0969-23-0172,0969-22-0455,130.1948336,32.4611967
44,大分県,大分市保健所,870-8506,大分市荷揚町6－１,097-536-2222,097-532-3105,131.609822,33.2410632
44,大分県,東部保健所,874-0840,別府市大字鶴見字下田井14－1,0977-67-2511,0977-67-2512,131.4462559,33.3060987
44,大分県,中部保健所,875-0041,臼杵市大字臼杵字洲崎72－34,0972-62-9171,0972-62-9173,131.8024609,33.1199498
44,大分県,南部保健所,876-0844,佐伯市向島1－4－1,0972-22-0562,0972-25-0206,131.8989251,32.9577152
44,大分県,豊肥保健所,879-7131,豊後大野市三重町市場934－2,0974-22-0162,0974-22-7580,131.580992,32.97569
44,大分県,西部保健所,877-0025,日田市田島2－2－5,0973-23-3133,0973-23-3136,130.9411399,33.3189965
44,大分県,北部保健所,871-0024,中津市中央町1－10－42,0979-22-2210,0979-22-2211,131.193121,33.5907631
45,宮崎県,宮崎市保健所,880-0879,宮崎市宮崎駅東1－6－2,0985-29-4111,0985-29-5208,131.4328631,31.9139417
45,宮崎県,都城保健所,885-0012,都城市上川東3－14－3,0986-23-4504,0986-23-0551,131.0781823,31.7425836
45,宮崎県,延岡保健所,882-0803,延岡市大貫町1－2840,0982-33-5373,0982-33-5375,131.6569154,32.5792155
45,宮崎県,日南保健所,889-2536,日南市吾田西1-5-10,0987-23-3141,0987-23-3014,131.3742679,31.6095487
45,宮崎県,小林保健所,886-0003,小林市大字堤字金鳥居3020－13,0984-23-3118,0984-23-3119,131.0041042,31.9629884
45,宮崎県,高鍋保健所,884-0004,児湯郡高鍋町大字蚊口浦5120－1,0983-22-1330,0983-23-5139,131.5267793,32.1258213
45,宮崎県,高千穂保健所,882-1101,西臼杵郡高千穂町大字三田井1086－1,0982-72-2168,0982-72-4786,131.305506,32.7057957
45,宮崎県,日向保健所,883-0041,日向市北町2－16,0982-52-5101,0982-52-5104,131.6271028,32.4326546
45,宮崎県,中央保健所,880-0032,宮崎市霧島1－1－2,0985-28-2111,0985-23-9613,131.4140494,31.9269238
46,鹿児島県,鹿児島市保健所,892-8677,鹿児島市山下町11-1,099-803-6842,099-803-7026,130.55699,31.5971518
46,鹿児島県,指宿保健所,891-0403,指宿市十二町301,0993-23-3854,0993-23-2142,130.6337205,31.2406556
46,鹿児島県,加世田保健所,897-0001,南さつま市加世田村原2-1-1,0993-53-2315,0993-53-4519,130.3256512,31.4234869
46,鹿児島県,伊集院保健所,899-2501,日置市伊集院町下谷口1960－1,099-273-2332,099-272-5674,130.3981481,31.62749749999999
46,鹿児島県,出水保健所,899-0202,出水市昭和町18－18,0996-62-1636,0996-63-1114,130.3518793,32.088342
46,鹿児島県,大口保健所,895-2511,伊佐市大口里53－1,0995-23-5103,0995-23-5124,130.6052084,32.06414120000001
46,鹿児島県,志布志保健所,899-7103,志布志市志布志町志布志2-1-11,099-472-1021,099-472-2855,131.0984236,31.4687864
46,鹿児島県,鹿屋保健所,893-0011,鹿屋市打馬2－16－6,0994-52-2103,0994-52-2110,130.8551443,31.3977442
46,鹿児島県,西之表保健所,891-3192,西之表市西之表7590,0997-22-0777,0997-22-1846,130.9968132,30.734251
46,鹿児島県,屋久島保健所,891-4311,熊毛郡屋久島町安房650,0997-46-2024,0997-46-3522,130.6554844,30.3214177
46,鹿児島県,名瀬保健所,894-8501,奄美市名瀬永田町17-3,0997-52-5411,0997-53-7874,129.4938391,28.3761234
46,鹿児島県,徳之島保健所,891-7101,大島郡徳之島町亀津4943－2,0997-82-0149,0997-83-2535,129.0163648,27.7176115
46,鹿児島県,川薩保健所,895-0041,薩摩川内市隈之城町228-1,0996-23-3165,0996-20-2127,130.3071874,31.80023229999999
46,鹿児島県,姶良保健所,899-5112,霧島市隼人町松永3320-16,0995-44-7951,0995-44-7969,130.7633608,31.778944
47,沖縄県,那覇市保健所,902-0076,那覇市与儀１－３－２1,098-853-7964,098-853-7965,127.693895,26.2065548
47,沖縄県,北部保健所,905-0017,名護市大中2-13-1,0980-52-2714,0980-53-2505,127.9876849,26.593427
47,沖縄県,南部保健所,901-1104,島尻郡南風原町字宮平212,098-889-6351,098-888-1348,127.738634,26.1987642
47,沖縄県,宮古保健所,906-0007,宮古島市平良東仲宗根476,0980-72-2420,0980-72-8446,125.2880116,24.8035289
47,沖縄県,八重山保健所,907-0002,石垣市字真栄里438,0980-82-3240,0980-83-0474,124.1871751,24.3404034
47,沖縄県,中部保健所,904-2155,沖縄市美原1-6-28,098-938-9886,098-938-9779,127.8197995,26.3478034
